{
"type": "FeatureCollection",
"name": "RHOCY_47_toilets",
"crs": { "type": "name", "properties": { "name": "urn:ogc:def:crs:OGC:1.3:CRS84" } },
"features": [
{ "type": "Feature", "properties": { "name": "markey", "payment_info": "20p", "accessible": "True", "radar": "False", "women": "True", "men": "True", "baby_change": "True", "Mon": "09:00-17:00", "Tue": "09:00-17:00", "Wed": "09:00-17:00", "Thu": "09:00-17:00", "Fri": "09:00-17:00", "Sat": "Closed", "Sun": "Closed", "index_right": 49, "park_offical_id": "RHOCY_47" }, "geometry": { "type": "Point", "coordinates": [ -3.341235316, 51.602128851 ] } },
{ "type": "Feature", "properties": { "name": "Pontypridd station", "payment_info": "Free", "accessible": "False", "radar": "False", "women": "True", "men": "True", "baby_change": "False", "Mon": "Unknown", "Tue": "Unknown", "Wed": "Unknown", "Thu": "Unknown", "Fri": "Unknown", "Sat": "Unknown", "Sun": "Unknown", "index_right": 49, "park_offical_id": "RHOCY_47" }, "geometry": { "type": "Point", "coordinates": [ -3.341388164, 51.599366248 ] } },
{ "type": "Feature", "properties": { "name": "Gents Toilet", "payment_info": "Free", "accessible": "False", "radar": "False", "women": "False", "men": "True", "baby_change": "False", "Mon": "00:00-00:00", "Tue": "00:00-00:00", "Wed": "00:00-00:00", "Thu": "00:00-00:00", "Fri": "00:00-00:00", "Sat": "00:00-00:00", "Sun": "00:00-00:00", "index_right": 49, "park_offical_id": "RHOCY_47" }, "geometry": { "type": "Point", "coordinates": [ -3.331775666, 51.597601927 ] } },
{ "type": "Feature", "properties": { "name": "Unknown", "payment_info": "Free", "accessible": "False", "radar": "Unknown", "women": "Unknown", "men": "Unknown", "baby_change": "Unknown", "Mon": "Unknown", "Tue": "Unknown", "Wed": "Unknown", "Thu": "Unknown", "Fri": "Unknown", "Sat": "Unknown", "Sun": "Unknown", "index_right": 49, "park_offical_id": "RHOCY_47" }, "geometry": { "type": "Point", "coordinates": [ -3.338934, 51.6019068 ] } },
{ "type": "Feature", "properties": { "name": "Pontypridd Bus Station", "payment_info": "Free", "accessible": "False", "radar": "Unknown", "women": "True", "men": "True", "baby_change": "Unknown", "Mon": "Unknown", "Tue": "Unknown", "Wed": "Unknown", "Thu": "Unknown", "Fri": "Unknown", "Sat": "Unknown", "Sun": "Unknown", "index_right": 49, "park_offical_id": "RHOCY_47" }, "geometry": { "type": "Point", "coordinates": [ -3.339840385, 51.605350233 ] } }
]
}
