{
"type": "FeatureCollection",
"name": "CARDI_54_toilets",
"crs": { "type": "name", "properties": { "name": "urn:ogc:def:crs:OGC:1.3:CRS84" } },
"features": [
{ "type": "Feature", "properties": { "name": "Waterloo Team Rooms", "payment_info": "Free", "accessible": "False", "radar": "False", "women": "True", "men": "True", "baby_change": "Unknown", "Mon": "Unknown", "Tue": "Unknown", "Wed": "Unknown", "Thu": "Unknown", "Fri": "Unknown", "Sat": "Unknown", "Sun": "Unknown", "index_right": 204, "park_offical_id": "CARDI_54" }, "geometry": { "type": "Point", "coordinates": [ -3.155468702, 51.494559767 ] } },
{ "type": "Feature", "properties": { "name": "Roath Park cafe", "payment_info": "Free", "accessible": "Unknown", "radar": "Unknown", "women": "True", "men": "True", "baby_change": "Unknown", "Mon": "Unknown", "Tue": "Unknown", "Wed": "Unknown", "Thu": "Unknown", "Fri": "Unknown", "Sat": "Unknown", "Sun": "Unknown", "index_right": 204, "park_offical_id": "CARDI_54" }, "geometry": { "type": "Point", "coordinates": [ -3.176196814, 51.506765853 ] } },
{ "type": "Feature", "properties": { "name": "Roath Park Lake", "payment_info": "Free", "accessible": "False", "radar": "Unknown", "women": "True", "men": "True", "baby_change": "Unknown", "Mon": "Unknown", "Tue": "Unknown", "Wed": "Unknown", "Thu": "Unknown", "Fri": "Unknown", "Sat": "Unknown", "Sun": "Unknown", "index_right": 204, "park_offical_id": "CARDI_54" }, "geometry": { "type": "Point", "coordinates": [ -3.173943758, 51.506368519 ] } },
{ "type": "Feature", "properties": { "name": "Penylan Library and Community Centre", "payment_info": "Free", "accessible": "True", "radar": "Unknown", "women": "True", "men": "True", "baby_change": "True", "Mon": "09:00-20:30", "Tue": "09:00-20:30", "Wed": "09:00-20:30", "Thu": "09:00-20:30", "Fri": "09:00-18:30", "Sat": "09:00-17:30", "Sun": "09:00-17:30", "index_right": 204, "park_offical_id": "CARDI_54" }, "geometry": { "type": "Point", "coordinates": [ -3.164910078, 51.496709172 ] } },
{ "type": "Feature", "properties": { "name": "Rhydypennau Library", "payment_info": "Free", "accessible": "False", "radar": "Unknown", "women": "Unknown", "men": "Unknown", "baby_change": "Unknown", "Mon": "09:00-17:00", "Tue": "09:00-17:00", "Wed": "09:00-17:00", "Thu": "09:00-17:00", "Fri": "09:00-17:00", "Sat": "Closed", "Sun": "Closed", "index_right": 204, "park_offical_id": "CARDI_54" }, "geometry": { "type": "Point", "coordinates": [ -3.177967072, 51.519426997 ] } }
]
}
